Team,Conference,Conference_Tier,Latitude,Longitude,City,State,Conf_Avg_NET,Conf_Tournament_Rate,Conf_Tourney_Teams_5yr,Conf_Avg_Tournament_Rate_5yr,Conf_Strength_Score,NET Rank,NET_Rank,Win_Pct,Season,RecordID
Coastal Carolina,Sun Belt,Low-Major,33.7953227,-79.0126785,100,,226.1,0.071,4,0.0804,35.4,229,229,0.5806451612903226,2025-26,2025-26-Coastal Carolina
Washington St.,WCC,Mid-Major,46.7337716,-117.1498035,150,,137.4,0.25,9,0.24100000000000002,60.74,145,145,0.3548387096774194,2025-26,2025-26-Washington St.
Nicholls,Southland,Low-Major,29.788594,-90.8035083,906,,221.2,0.083,3,0.08020000000000001,36.8,250,250,0.40625,2025-26,2025-26-Nicholls
FGCU,ASUN,Low-Major,26.4636478,-81.7747246,10501,,259.9,0.083,4,0.0816,25.74,247,247,0.4375,2025-26,2025-26-FGCU
Eastern Mich.,MAC,Low-Major,42.2522463,-83.6245615,Putnam-Phelps,,200.5,0.154,3,0.05700000000000001,42.71,238,238,0.3,2025-26,2025-26-Eastern Mich.
Florida,SEC,Power,29.6411884,-82.3562296,Southwest 14th Street,,46.4,0.625,34,0.5916,86.74,4,4,0.7878787878787878,2025-26,2025-26-Florida
Tulsa,American,Low-Major,36.1523306,-95.9459602,East 3rd Street South,,160.3,0.077,8,0.1528,54.2,52,52,0.7741935483870968,2025-26,2025-26-Tulsa
Louisville,ACC,Power,38.2133224,-85.7577075,2301,,62.0,0.444,19,0.3154,82.29,16,16,0.696969696969697,2025-26,2025-26-Louisville
North Dakota,Summit League,Low-Major,47.9265412,-97.0721209,Oxbow Court,,238.9,0.111,3,0.0786,31.74,271,271,0.46875,2025-26,2025-26-North Dakota
UTRGV,Southland,Low-Major,26.3071534,-98.1728187,1201,,221.2,0.083,3,0.08020000000000001,36.8,126,126,0.5483870967741935,2025-26,2025-26-UTRGV
UAlbany,America East,Low-Major,42.6867,-73.8257,Albany,NY,310.9,0.111,5,0.13140000000000002,11.17,326,326,0.27586206896551724,2025-26,2025-26-UAlbany
Baylor,Big 12,Power,31.5504341,-97.1102906,1301,,48.9,0.5,25,0.557,86.03,50,50,0.4838709677419355,2025-26,2025-26-Baylor
Montana,Big Sky,Low-Major,46.8541841,-113.9655283,Kim Wiliams Trail,,198.8,0.1,3,0.0708,43.2,194,194,0.5,2025-26,2025-26-Montana
Eastern Wash.,Big Sky,Low-Major,47.4910113,-117.5842545,526,,198.8,0.1,3,0.0708,43.2,204,204,0.40625,2025-26,2025-26-Eastern Wash.
Colorado St.,Mountain West,Mid-Major,40.5706567,-105.0853995,Constitution Avenue,,113.7,0.083,17,0.3812,67.51,87,87,0.625,2025-26,2025-26-Colorado St.
UT Martin,OVC,Low-Major,36.3414523,-88.8642273,Hurt Street,,275.6,0.091,2,0.0422,21.26,205,205,0.6333333333333333,2025-26,2025-26-UT Martin
Xavier,Big East,Power,39.1513078,-84.4708348,Victory Parkway,,67.5,0.273,19,0.487,80.71,97,97,0.45454545454545453,2025-26,2025-26-Xavier
Omaha,Summit League,Low-Major,41.2577933,-96.0104971,University Drive North,,238.9,0.111,3,0.0786,31.74,258,258,0.41379310344827586,2025-26,2025-26-Omaha
Sacred Heart,MAAC,Low-Major,41.2225974,-73.2444673,5151,,262.2,0.077,3,0.075,25.09,293,293,0.40625,2025-26,2025-26-Sacred Heart
Coppin St.,MEAC,Low-Major,39.3110927,-76.6585289,Tioga Parkway,,330.9,0.125,5,0.1414,5.46,363,363,0.2,2025-26,2025-26-Coppin St.
UAB,American,Low-Major,33.5016153,-86.8060476,1720,,160.3,0.077,8,0.1528,54.2,118,118,0.6129032258064516,2025-26,2025-26-UAB
California Baptist,WAC,Low-Major,33.9283239,-117.4259206,8432,,181.4,0.143,2,0.045,48.17,98,98,0.7575757575757576,2025-26,2025-26-California Baptist
New Mexico,Mountain West,Mid-Major,35.0866328,-106.6202094,Buena Vista Drive Northeast,,113.7,0.083,17,0.3812,67.51,46,46,0.6875,2025-26,2025-26-New Mexico
UC Irvine,Big West,Low-Major,33.6429469,-117.8401606,Irvine,,192.0,0.091,1,0.025,45.14,117,117,0.65625,2025-26,2025-26-UC Irvine
Saint Mary's (CA),WCC,Mid-Major,37.8409597,-122.109459,De La Salle Drive,,137.4,0.25,9,0.24100000000000002,60.74,22,22,0.8387096774193549,2025-26,2025-26-Saint Mary's (CA)
Northeastern,CAA,Low-Major,42.3351053,-71.0892579,360,,192.4,0.077,3,0.0756,45.03,286,286,0.22580645161290322,2025-26,2025-26-Northeastern
Tulane,American,Low-Major,29.9412196,-90.1201009,6823,,160.3,0.077,8,0.1528,54.2,207,207,0.53125,2025-26,2025-26-Tulane
Iowa St.,Big 12,Power,42.0279608,-93.6447375,Westwood Drive,,48.9,0.5,25,0.557,86.03,7,7,0.7941176470588235,2025-26,2025-26-Iowa St.
Duke,ACC,Power,36.0001557,-78.9442297,Durham Freeway,,62.0,0.444,19,0.3154,82.29,1,1,0.9411764705882353,2025-26,2025-26-Duke
Rider,MAAC,Low-Major,40.2815513,-74.7404467,Lawrence Road,,262.2,0.077,3,0.075,25.09,357,357,0.10714285714285714,2025-26,2025-26-Rider
Elon,CAA,Low-Major,36.1063398,-79.5027368,Trollinger Avenue,,192.4,0.077,3,0.0756,45.03,223,223,0.4,2025-26,2025-26-Elon
Cal St. Fullerton,Big West,Low-Major,33.8830939,-117.8852152,800,,192.0,0.091,1,0.025,45.14,177,177,0.5,2025-26,2025-26-Cal St. Fullerton
NIU,MAC,Low-Major,41.9370934,-88.7826784,1425,,200.5,0.154,3,0.05700000000000001,42.71,335,335,0.25,2025-26,2025-26-NIU
Colorado,Big 12,Power,40.0070061,-105.2664423,Boulder,,48.9,0.5,25,0.557,86.03,77,77,0.53125,2025-26,2025-26-Colorado
San Jose St.,Mountain West,Mid-Major,37.3351903,-121.881225,1,,113.7,0.083,17,0.3812,67.51,244,244,0.25,2025-26,2025-26-San Jose St.
Penn St.,Big Ten,Power,39.9512098,-75.1835561,Walnut Street,,55.7,0.5,32,0.5892,84.09,141,141,0.375,2025-26,2025-26-Penn St.
CSU Bakersfield,Big West,Low-Major,35.3472,-119.1041,Bakersfield,CA,192.0,0.091,1,0.025,45.14,330,330,0.2,2025-26,2025-26-CSU Bakersfield
Maryland,Big Ten,Power,38.9904124,-76.9438586,College Park,,55.7,0.5,32,0.5892,84.09,138,138,0.36363636363636365,2025-26,2025-26-Maryland
Miami (OH),MAC,Low-Major,39.5094198,-84.7311546,South Patterson Avenue,,200.5,0.154,3,0.05700000000000001,42.71,64,64,0.9655172413793104,2025-26,2025-26-Miami (OH)
Winthrop,Big South,Low-Major,34.9391204,-81.0324911,Sumter Avenue,,236.7,0.111,3,0.085,32.37,131,131,0.6451612903225806,2025-26,2025-26-Winthrop
Vanderbilt,SEC,Power,36.1438011,-86.8028189,2201,,46.4,0.625,34,0.5916,86.74,13,13,0.7878787878787878,2025-26,2025-26-Vanderbilt
Holy Cross,Patriot,Low-Major,42.2366865,-71.8070248,1,,280.7,0.1,5,0.1538,19.8,331,331,0.2903225806451613,2025-26,2025-26-Holy Cross
Rutgers,Big Ten,Power,40.5204169,-74.4645303,Dewey Court,,55.7,0.5,32,0.5892,84.09,135,135,0.42424242424242425,2025-26,2025-26-Rutgers
Lipscomb,ASUN,Low-Major,36.1050717,-86.7986409,Burton Avenue,,259.9,0.083,4,0.0816,25.74,193,193,0.5666666666666667,2025-26,2025-26-Lipscomb
California,ACC,Power,37.8754996,-122.2390685,Berkeley,,62.0,0.444,19,0.3154,82.29,68,68,0.6451612903225806,2025-26,2025-26-California
Purdue,Big Ten,Power,40.430028,-86.9264211,610,,55.7,0.5,32,0.5892,84.09,9,9,0.7647058823529411,2025-26,2025-26-Purdue
Kentucky,SEC,Power,38.0266291,-84.5047222,101,,46.4,0.625,34,0.5916,86.74,28,28,0.6176470588235294,2025-26,2025-26-Kentucky
Duquesne,Atlantic 10,Mid-Major,40.4381017,-79.9896684,Forbes Avenue,,132.2,0.143,5,0.0838,62.23,133,133,0.5161290322580645,2025-26,2025-26-Duquesne
BYU,Big 12,Power,40.2554083,-111.6496832,800 North,,48.9,0.5,25,0.557,86.03,23,23,0.6764705882352942,2025-26,2025-26-BYU
Marshall,Sun Belt,Low-Major,38.4236258,-82.4274024,1,,226.1,0.071,4,0.0804,35.4,171,171,0.5806451612903226,2025-26,2025-26-Marshall
Tennessee,SEC,Power,35.9516352,-83.9308819,Knoxville,,46.4,0.625,34,0.5916,86.74,20,20,0.6666666666666666,2025-26,2025-26-Tennessee
Queens (NC),ASUN,Low-Major,35.1889,-80.7326,Charlotte,NC,259.9,0.083,4,0.0816,25.74,189,189,0.6060606060606061,2025-26,2025-26-Queens (NC)
IU Indy,Horizon,Low-Major,39.7747586,-86.1769528,420,,221.2,0.091,3,0.089,36.8,319,319,0.16666666666666666,2025-26,2025-26-IU Indy
ULM,Sun Belt,Low-Major,32.5318286,-92.0658112,700,,226.1,0.071,4,0.0804,35.4,355,355,0.06666666666666667,2025-26,2025-26-ULM
Providence,Big East,Power,41.8442938,-71.4354886,1,,67.5,0.273,19,0.487,80.71,81,81,0.45454545454545453,2025-26,2025-26-Providence
Memphis,American,Low-Major,35.1189387,-89.9372196,Zack H Curlin Street,,160.3,0.077,8,0.1528,54.2,134,134,0.40625,2025-26,2025-26-Memphis
Southern Ill.,MVC,Mid-Major,37.7083423,-89.2275556,1263,,141.1,0.091,5,0.1096,59.69,120,120,0.4838709677419355,2025-26,2025-26-Southern Ill.
Col. of Charleston,CAA,Low-Major,32.7840902,-79.9380024,66,,192.4,0.077,3,0.0756,45.03,162,162,0.6451612903225806,2025-26,2025-26-Col. of Charleston
Liberty,CUSA,Low-Major,37.3539467,-79.1531533,1971,,188.7,0.083,4,0.0954,46.09,106,106,0.7586206896551724,2025-26,2025-26-Liberty
Bradley,MVC,Mid-Major,40.6981131,-89.6155139,1501,,141.1,0.091,5,0.1096,59.69,113,113,0.625,2025-26,2025-26-Bradley
Oakland,Horizon,Low-Major,42.6666333,-83.2065575,201,,221.2,0.091,3,0.089,36.8,175,175,0.4838709677419355,2025-26,2025-26-Oakland
Central Conn. St.,NEC,Low-Major,41.6929278,-72.765429,1615,,304.0,0.1,4,0.13540000000000002,13.14,289,289,0.5714285714285714,2025-26,2025-26-Central Conn. St.
Syracuse,ACC,Power,43.0171129,-76.1185536,Tecumseh Road,,62.0,0.444,19,0.3154,82.29,86,86,0.46875,2025-26,2025-26-Syracuse
UC Riverside,Big West,Low-Major,33.9642576,-117.3398097,Riverside,,192.0,0.091,1,0.025,45.14,273,273,0.26666666666666666,2025-26,2025-26-UC Riverside
Florida St.,ACC,Power,27.7627389,-82.6361822,140,,62.0,0.444,19,0.3154,82.29,62,62,0.5454545454545454,2025-26,2025-26-Florida St.
Southern California,Big Ten,Power,34.021869,-118.2858579,Harbor Freeway,,55.7,0.5,32,0.5892,84.09,79,79,0.5483870967741935,2025-26,2025-26-Southern California
Howard,MEAC,Low-Major,38.9218972,-77.0195931,2400,,330.9,0.125,5,0.1414,5.46,203,203,0.6551724137931034,2025-26,2025-26-Howard
UMES,MEAC,Low-Major,38.2107,-75.6855,Princess Anne,MD,330.9,0.125,5,0.1414,5.46,351,351,0.23333333333333334,2025-26,2025-26-UMES
North Dakota St.,Summit League,Low-Major,46.897155,-96.8182654,12th Avenue North,,238.9,0.111,3,0.0786,31.74,114,114,0.7741935483870968,2025-26,2025-26-North Dakota St.
Washington,Big Ten,Power,47.6554303,-122.3001692,1410,,55.7,0.5,32,0.5892,84.09,57,57,0.48484848484848486,2025-26,2025-26-Washington
Fordham,Atlantic 10,Mid-Major,40.8617344,-73.8860317,441,,132.2,0.143,5,0.0838,62.23,174,174,0.4827586206896552,2025-26,2025-26-Fordham
LMU (CA),WCC,Mid-Major,36.5718381,-83.661624,6965,,137.4,0.25,9,0.24100000000000002,60.74,179,179,0.45161290322580644,2025-26,2025-26-LMU (CA)
Saint Louis,Atlantic 10,Mid-Major,38.6472402,-90.3084017,1,,132.2,0.143,5,0.0838,62.23,30,30,0.84375,2025-26,2025-26-Saint Louis
Chattanooga,SoCon,Low-Major,35.0470904,-85.298257,615,,248.3,0.1,1,0.0222,29.06,288,288,0.3448275862068966,2025-26,2025-26-Chattanooga
VCU,Atlantic 10,Mid-Major,37.5461247,-77.4540609,907,,132.2,0.143,5,0.0838,62.23,43,43,0.7878787878787878,2025-26,2025-26-VCU
Illinois St.,MVC,Mid-Major,38.9526899,-95.2454027,University Place,,141.1,0.091,5,0.1096,59.69,95,95,0.6129032258064516,2025-26,2025-26-Illinois St.
New Orleans,Southland,Low-Major,30.0283526,-90.0668428,Elysian Fields Avenue,,221.2,0.083,3,0.08020000000000001,36.8,215,215,0.45454545454545453,2025-26,2025-26-New Orleans
Northwestern,Big Ten,Power,42.0557157,-87.6752945,633,,55.7,0.5,32,0.5892,84.09,66,66,0.4411764705882353,2025-26,2025-26-Northwestern
Temple,American,Low-Major,39.981188,-75.1562828,1801,,160.3,0.077,8,0.1528,54.2,167,167,0.4838709677419355,2025-26,2025-26-Temple
Manhattan,MAAC,Low-Major,40.8125642,-73.9612954,West 122nd Street,,262.2,0.077,3,0.075,25.09,329,329,0.3548387096774194,2025-26,2025-26-Manhattan
UConn,Big East,Power,41.8111114,-72.2483889,Storrs Road,,67.5,0.273,19,0.487,80.71,10,10,0.8529411764705882,2025-26,2025-26-UConn
Davidson,Atlantic 10,Mid-Major,40.8594824,-73.9043894,University Heights,,132.2,0.143,5,0.0838,62.23,115,115,0.5806451612903226,2025-26,2025-26-Davidson
UCF,Big 12,Power,28.599591,-81.1971284,4000,,48.9,0.5,25,0.557,86.03,51,51,0.65625,2025-26,2025-26-UCF
Merrimack,MAAC,Low-Major,42.6519097,-71.3173628,Middlesex Street,,262.2,0.077,3,0.075,25.09,180,180,0.6764705882352942,2025-26,2025-26-Merrimack
Bellarmine,ASUN,Low-Major,38.2187504,-85.7058411,2001,,259.9,0.083,4,0.0816,25.74,285,285,0.36666666666666664,2025-26,2025-26-Bellarmine
Stetson,ASUN,Low-Major,29.0365347,-81.3005411,421,,259.9,0.083,4,0.0816,25.74,314,314,0.3225806451612903,2025-26,2025-26-Stetson
Michigan,Big Ten,Power,42.2942142,-83.7100389,500,,55.7,0.5,32,0.5892,84.09,2,2,0.9393939393939394,2025-26,2025-26-Michigan
Murray St.,MVC,Mid-Major,36.6129699,-88.322088,Olive Boulevard,,141.1,0.091,5,0.1096,59.69,105,105,0.625,2025-26,2025-26-Murray St.
Virginia,ACC,Power,38.0410576,-78.5055084,Goodwin Bridge,,62.0,0.444,19,0.3154,82.29,12,12,0.8529411764705882,2025-26,2025-26-Virginia
UMass Lowell,America East,Low-Major,42.6519097,-71.3173628,Cross Street,,310.9,0.111,5,0.13140000000000002,11.17,321,321,0.4,2025-26,2025-26-UMass Lowell
Lindenwood,OVC,Low-Major,38.5230861,-90.01096,2600,,275.6,0.091,2,0.0422,21.26,262,262,0.5,2025-26,2025-26-Lindenwood
Mississippi Val.,SWAC,Low-Major,33.5138,-90.34,Itta Bena,MS,315.8,0.083,3,0.0908,9.77,365,365,0.0625,2025-26,2025-26-Mississippi Val.
Cornell,Ivy League,Low-Major,42.4529076,-76.4800842,City of Ithaca,,188.6,0.125,3,0.0822,46.11,149,149,0.5,2025-26,2025-26-Cornell
A&M-Corpus Christi,Southland,Low-Major,27.7127514,-97.3233877,Starfish Lane,,221.2,0.083,3,0.08020000000000001,36.8,191,191,0.4827586206896552,2025-26,2025-26-A&M-Corpus Christi
Akron,MAC,Low-Major,41.0757383,-81.5114532,Wolf Ledges Parkway,,200.5,0.154,3,0.05700000000000001,42.71,54,54,0.84375,2025-26,2025-26-Akron
Wagner,NEC,Low-Major,35.3071604,-80.7373778,Toby Creek Greenway,,304.0,0.1,4,0.13540000000000002,13.14,302,302,0.39285714285714285,2025-26,2025-26-Wagner
Mercyhurst,NEC,Low-Major,42.1041456,-80.0538851,501,,304.0,0.1,4,0.13540000000000002,13.14,277,277,0.46875,2025-26,2025-26-Mercyhurst
UNLV,Mountain West,Mid-Major,36.1079411,-115.1439051,Las Vegas,,113.7,0.083,17,0.3812,67.51,111,111,0.5,2025-26,2025-26-UNLV
Colgate,Patriot,Low-Major,42.8154037,-75.5395816,Broad Street,,280.7,0.1,5,0.1538,19.8,226,226,0.5161290322580645,2025-26,2025-26-Colgate
Texas Tech,Big 12,Power,33.5937526,-101.8995955,2500,,48.9,0.5,25,0.557,86.03,19,19,0.6875,2025-26,2025-26-Texas Tech
UTEP,CUSA,Low-Major,31.7702,-106.5044,El Paso,TX,188.7,0.083,4,0.0954,46.09,268,268,0.2857142857142857,2025-26,2025-26-UTEP
Oregon St.,WCC,Mid-Major,45.5161924,-122.6807637,620,,137.4,0.25,9,0.24100000000000002,60.74,170,170,0.5151515151515151,2025-26,2025-26-Oregon St.
NC State,ACC,Power,35.7718497,-78.674087,Pullen Road,,62.0,0.444,19,0.3154,82.29,36,36,0.6060606060606061,2025-26,2025-26-NC State
Iowa,Big Ten,Power,41.6682891,-91.5795068,North Riverside Drive,,55.7,0.5,32,0.5892,84.09,27,27,0.6363636363636364,2025-26,2025-26-Iowa
Green Bay,Horizon,Low-Major,44.5328424,-87.9198844,2420,,221.2,0.091,3,0.089,36.8,217,217,0.5161290322580645,2025-26,2025-26-Green Bay
Alabama,SEC,Power,33.2120822,-87.5396735,Julia Tutwiler Drive,,46.4,0.625,34,0.5916,86.74,18,18,0.71875,2025-26,2025-26-Alabama
Texas St.,Sun Belt,Low-Major,33.2161837,-97.1452758,Ponder Street,,226.1,0.071,4,0.0804,35.4,235,235,0.5666666666666667,2025-26,2025-26-Texas St.
LSU,SEC,Power,30.4062005,-91.1854129,Normal Place,,46.4,0.625,34,0.5916,86.74,78,78,0.46875,2025-26,2025-26-LSU
CSUN,Big West,Low-Major,34.2455346,-118.5263221,Northridge,,192.0,0.091,1,0.025,45.14,188,188,0.5625,2025-26,2025-26-CSUN
Hampton,CAA,Low-Major,37.0210096,-76.3386255,100,,192.4,0.077,3,0.0756,45.03,270,270,0.36666666666666664,2025-26,2025-26-Hampton
North Texas,American,Low-Major,33.2098926,-97.1514762,1155,,160.3,0.077,8,0.1528,54.2,137,137,0.5483870967741935,2025-26,2025-26-North Texas
Sam Houston,CUSA,Low-Major,30.7133471,-95.5449136,1905,,188.7,0.083,4,0.0954,46.09,107,107,0.6333333333333333,2025-26,2025-26-Sam Houston
UC Davis,Big West,Low-Major,38.5337904,-121.7907544,Davis,,192.0,0.091,1,0.025,45.14,178,178,0.5483870967741935,2025-26,2025-26-UC Davis
N.C. Central,MEAC,Low-Major,35.9742,-78.8986,Durham,NC,330.9,0.125,5,0.1414,5.46,342,342,0.35714285714285715,2025-26,2025-26-N.C. Central
Air Force,Mountain West,Mid-Major,39.008415,-104.8903879,2306,,113.7,0.083,17,0.3812,67.51,350,350,0.09375,2025-26,2025-26-Air Force
Morgan St.,MEAC,Low-Major,39.3446663,-76.5836094,1700,,330.9,0.125,5,0.1414,5.46,352,352,0.4074074074074074,2025-26,2025-26-Morgan St.
Cincinnati,Big 12,Power,39.1134631,-84.5544375,Claypole Avenue,,48.9,0.5,25,0.557,86.03,49,49,0.5454545454545454,2025-26,2025-26-Cincinnati
Tennessee St.,OVC,Low-Major,36.1679249,-86.8271487,Albion Street,,275.6,0.091,2,0.0422,21.26,172,172,0.6896551724137931,2025-26,2025-26-Tennessee St.
Quinnipiac,MAAC,Low-Major,41.4181949,-72.8931049,275,,262.2,0.077,3,0.075,25.09,211,211,0.5806451612903226,2025-26,2025-26-Quinnipiac
Little Rock,OVC,Low-Major,34.7223681,-92.3383026,2801,,275.6,0.091,2,0.0422,21.26,309,309,0.3333333333333333,2025-26,2025-26-Little Rock
Wisconsin,Big Ten,Power,43.0802745,-89.4309587,University Houses,,55.7,0.5,32,0.5892,84.09,25,25,0.7058823529411765,2025-26,2025-26-Wisconsin
Long Beach St.,Big West,Low-Major,33.7817709,-118.1152001,Long Beach,,192.0,0.091,1,0.025,45.14,257,257,0.26666666666666666,2025-26,2025-26-Long Beach St.
Minnesota,Big Ten,Power,44.9863418,-93.1794451,Twin Cities Campus,,55.7,0.5,32,0.5892,84.09,80,80,0.46875,2025-26,2025-26-Minnesota
Samford,SoCon,Low-Major,33.4641484,-86.7939592,Shades Creek Greenway (Lakeshore Trail),,248.3,0.1,1,0.0222,29.06,218,218,0.5333333333333333,2025-26,2025-26-Samford
Houston Christian,Southland,Low-Major,29.6944292,-95.5147559,7502,,221.2,0.083,3,0.08020000000000001,36.8,294,294,0.3333333333333333,2025-26,2025-26-Houston Christian
Eastern Ill.,OVC,Low-Major,39.4842,-88.1753,Charleston,IL,275.6,0.091,2,0.0422,21.26,320,320,0.3333333333333333,2025-26,2025-26-Eastern Ill.
New Hampshire,America East,Low-Major,43.1350987,-70.9462079,105,,310.9,0.111,5,0.13140000000000002,11.17,348,348,0.25,2025-26,2025-26-New Hampshire
Siena,MAAC,Low-Major,41.9062844,-84.0179652,1247,,262.2,0.077,3,0.075,25.09,183,183,0.6764705882352942,2025-26,2025-26-Siena
Grand Canyon,Mountain West,Mid-Major,33.5131857,-112.127183,3300,,113.7,0.083,17,0.3812,67.51,71,71,0.625,2025-26,2025-26-Grand Canyon
High Point,Big South,Low-Major,35.9720859,-79.9936582,Blessing Way,,236.7,0.111,3,0.085,32.37,76,76,0.8709677419354839,2025-26,2025-26-High Point
Oregon,Big Ten,Power,44.0444197,-123.0717603,1585,,55.7,0.5,32,0.5892,84.09,109,109,0.375,2025-26,2025-26-Oregon
Texas Southern,SWAC,Low-Major,29.7209058,-95.3596267,Ruth Street,,315.8,0.083,3,0.0908,9.77,322,322,0.35714285714285715,2025-26,2025-26-Texas Southern
N.C. A&T,CAA,Low-Major,36.0726,-79.773,Greensboro,NC,192.4,0.077,3,0.0756,45.03,276,276,0.32142857142857145,2025-26,2025-26-N.C. A&T
Northwestern St.,Southland,Low-Major,29.7215812,-95.4400102,Greenway / Upper Kirby,,221.2,0.083,3,0.08020000000000001,36.8,301,301,0.26666666666666666,2025-26,2025-26-Northwestern St.
Prairie View,SWAC,Low-Major,30.0960955,-95.9870007,700,,315.8,0.083,3,0.0908,9.77,300,300,0.45161290322580644,2025-26,2025-26-Prairie View
Seton Hall,Big East,Power,40.7433314,-74.2468921,Gardner Avenue,,67.5,0.273,19,0.487,80.71,53,53,0.6363636363636364,2025-26,2025-26-Seton Hall
Indiana St.,MVC,Mid-Major,38.9527388,-95.2430182,University Place,,141.1,0.091,5,0.1096,59.69,213,213,0.3,2025-26,2025-26-Indiana St.
San Diego,WCC,Mid-Major,32.7726302,-117.1891347,5998,,137.4,0.25,9,0.24100000000000002,60.74,234,234,0.3225806451612903,2025-26,2025-26-San Diego
La Salle,Atlantic 10,Mid-Major,40.0376298,-75.1540025,East Penn Street,,132.2,0.143,5,0.0838,62.23,246,246,0.25806451612903225,2025-26,2025-26-La Salle
Southeast Mo. St.,OVC,Low-Major,37.3175802,-89.5284899,North Frederick Street,,275.6,0.091,2,0.0422,21.26,224,224,0.5666666666666667,2025-26,2025-26-Southeast Mo. St.
Texas A&M,SEC,Power,30.6108618,-96.3520606,400,,46.4,0.625,34,0.5916,86.74,44,44,0.65625,2025-26,2025-26-Texas A&M
Purdue Fort Wayne,Horizon,Low-Major,41.1210815,-85.1057891,2101,,221.2,0.091,3,0.089,36.8,254,254,0.4827586206896552,2025-26,2025-26-Purdue Fort Wayne
Detroit Mercy,Horizon,Low-Major,42.4140319,-83.1378601,4001,,221.2,0.091,3,0.089,36.8,221,221,0.5,2025-26,2025-26-Detroit Mercy
New Mexico St.,CUSA,Low-Major,32.2729032,-106.7434927,1780,,188.7,0.083,4,0.0954,46.09,190,190,0.4482758620689655,2025-26,2025-26-New Mexico St.
Saint Francis,NEC,Low-Major,40.5034672,-78.6382564,117,,304.0,0.1,4,0.13540000000000002,13.14,353,353,0.1724137931034483,2025-26,2025-26-Saint Francis
Delaware,CUSA,Low-Major,39.6802837,-75.7530984,Academy Street,,188.7,0.083,4,0.0954,46.09,287,287,0.3333333333333333,2025-26,2025-26-Delaware
Richmond,Atlantic 10,Mid-Major,37.5758797,-77.5412837,28,,132.2,0.143,5,0.0838,62.23,165,165,0.45161290322580644,2025-26,2025-26-Richmond
Missouri St.,CUSA,Low-Major,38.7086398,-90.3117145,Clearview Drive,,188.7,0.083,4,0.0954,46.09,206,206,0.41935483870967744,2025-26,2025-26-Missouri St.
App State,Sun Belt,Low-Major,36.2120057,-81.6789456,287,,226.1,0.071,4,0.0804,35.4,192,192,0.5666666666666667,2025-26,2025-26-App State
George Mason,Atlantic 10,Mid-Major,38.8313333,-77.3079884,4400,,132.2,0.143,5,0.0838,62.23,92,92,0.7096774193548387,2025-26,2025-26-George Mason
ETSU,SoCon,Low-Major,36.3024236,-82.3692822,1276,,248.3,0.1,1,0.0222,29.06,139,139,0.65625,2025-26,2025-26-ETSU
UNI,MVC,Mid-Major,42.5149569,-92.4629522,1227,,141.1,0.091,5,0.1096,59.69,72,72,0.6470588235294118,2025-26,2025-26-UNI
Fairfield,MAAC,Low-Major,41.1596757,-73.2574031,1073,,262.2,0.077,3,0.075,25.09,240,240,0.6060606060606061,2025-26,2025-26-Fairfield
Old Dominion,Sun Belt,Low-Major,36.8862699,-76.3097248,5115,,226.1,0.071,4,0.0804,35.4,255,255,0.34375,2025-26,2025-26-Old Dominion
Drake,MVC,Mid-Major,41.6030742,-93.6552753,29th Street,,141.1,0.091,5,0.1096,59.69,199,199,0.375,2025-26,2025-26-Drake
North Carolina,ACC,Power,35.9050354,-79.0477533,Ray Road,,62.0,0.444,19,0.3154,82.29,24,24,0.75,2025-26,2025-26-North Carolina
Houston,Big 12,Power,29.7207902,-95.3440627,4800,,48.9,0.5,25,0.557,86.03,5,5,0.8235294117647058,2025-26,2025-26-Houston
Western Caro.,SoCon,Low-Major,35.3100146,-83.1990402,65,,248.3,0.1,1,0.0222,29.06,228,228,0.4482758620689655,2025-26,2025-26-Western Caro.
Ohio,MAC,Low-Major,39.3241782,-82.1015648,West Union Street,,200.5,0.154,3,0.05700000000000001,42.71,231,231,0.43333333333333335,2025-26,2025-26-Ohio
Rice,American,Low-Major,29.7167915,-95.4047811,6100,,160.3,0.077,8,0.1528,54.2,243,243,0.3793103448275862,2025-26,2025-26-Rice
South Alabama,Sun Belt,Low-Major,30.6972412,-88.1892334,307,,226.1,0.071,4,0.0804,35.4,187,187,0.6333333333333333,2025-26,2025-26-South Alabama
UC San Diego,Big West,Low-Major,32.8792438,-117.2311247,San Diego,,192.0,0.091,1,0.025,45.14,124,124,0.65625,2025-26,2025-26-UC San Diego
Bucknell,Patriot,Low-Major,40.9515356,-76.8879603,Westbranch Highway,,280.7,0.1,5,0.1538,19.8,333,333,0.30303030303030304,2025-26,2025-26-Bucknell
UNC Asheville,Big South,Low-Major,35.6171,-82.5663,Asheville,NC,236.7,0.111,3,0.085,32.37,239,239,0.41379310344827586,2025-26,2025-26-UNC Asheville
Pacific,WCC,Mid-Major,45.5226463,-123.1093187,2043,,137.4,0.25,9,0.24100000000000002,60.74,116,116,0.5161290322580645,2025-26,2025-26-Pacific
Wyoming,Mountain West,Mid-Major,41.314986,-105.5643222,1000,,113.7,0.083,17,0.3812,67.51,99,99,0.5483870967741935,2025-26,2025-26-Wyoming
Vermont,America East,Low-Major,44.4737365,-73.1941468,Colchester Avenue,,310.9,0.111,5,0.13140000000000002,11.17,227,227,0.625,2025-26,2025-26-Vermont
Bethune-Cookman,SWAC,Low-Major,29.2118536,-81.0319825,640,,315.8,0.083,3,0.0908,9.77,261,261,0.5161290322580645,2025-26,2025-26-Bethune-Cookman
Santa Clara,WCC,Mid-Major,37.3486243,-121.936544,500,,137.4,0.25,9,0.24100000000000002,60.74,40,40,0.7575757575757576,2025-26,2025-26-Santa Clara
Georgia Tech,ACC,Power,33.7760948,-84.3988077,North Avenue Turn Around,,62.0,0.444,19,0.3154,82.29,169,169,0.3548387096774194,2025-26,2025-26-Georgia Tech
Le Moyne,NEC,Low-Major,43.0451,-76.0824,Syracuse,NY,304.0,0.1,4,0.13540000000000002,13.14,290,290,0.45161290322580644,2025-26,2025-26-Le Moyne
Charleston So.,Big South,Low-Major,36.1591665,-115.16161,University Medical Center,,236.7,0.111,3,0.085,32.37,242,242,0.41379310344827586,2025-26,2025-26-Charleston So.
Arizona,Big 12,Power,32.235681,-110.951744,North Olsen Avenue,,48.9,0.5,25,0.557,86.03,3,3,0.9411764705882353,2025-26,2025-26-Arizona
Central Mich.,MAC,Low-Major,43.58355,-84.7746308,1200,,200.5,0.154,3,0.05700000000000001,42.71,280,280,0.27586206896551724,2025-26,2025-26-Central Mich.
Southeastern La.,Southland,Low-Major,30.5182254,-90.4688149,North Magnolia Street,,221.2,0.083,3,0.08020000000000001,36.8,295,295,0.26666666666666666,2025-26,2025-26-Southeastern La.
Norfolk St.,MEAC,Low-Major,40.7453073,-74.1829578,Central Avenue,,330.9,0.125,5,0.1414,5.46,318,318,0.39285714285714285,2025-26,2025-26-Norfolk St.
Oral Roberts,Summit League,Low-Major,36.0508252,-95.9521355,Billy Joe Daugherty Circle,,238.9,0.111,3,0.0786,31.74,311,311,0.23333333333333334,2025-26,2025-26-Oral Roberts
West Ga.,ASUN,Low-Major,33.5757,-85.0988,Carrollton,GA,259.9,0.083,4,0.0816,25.74,298,298,0.43333333333333335,2025-26,2025-26-West Ga.
Furman,SoCon,Low-Major,34.9257744,-82.4385258,3300,,248.3,0.1,1,0.0222,29.06,186,186,0.6129032258064516,2025-26,2025-26-Furman
Hawaii,Big West,Low-Major,21.2982795,-157.8186932,2500,,192.0,0.091,1,0.025,45.14,101,101,0.7333333333333333,2025-26,2025-26-Hawaii
UIW,Southland,Low-Major,29.4688466,-98.4691039,East Hildebrand Avenue,,221.2,0.083,3,0.08020000000000001,36.8,282,282,0.32142857142857145,2025-26,2025-26-UIW
Buffalo,MAC,Low-Major,42.9335571,-78.8845343,1300,,200.5,0.154,3,0.05700000000000001,42.71,195,195,0.5,2025-26,2025-26-Buffalo
UT Arlington,WAC,Low-Major,32.7315155,-97.1171533,500,,181.4,0.143,2,0.045,48.17,161,161,0.5333333333333333,2025-26,2025-26-UT Arlington
Youngstown St.,Horizon,Low-Major,28.5724126,-81.1855099,Alafaya Palms Manufactured Home Community,,221.2,0.091,3,0.089,36.8,219,219,0.41379310344827586,2025-26,2025-26-Youngstown St.
East Carolina,American,Low-Major,35.6328512,-77.4852672,1001,,160.3,0.077,8,0.1528,54.2,267,267,0.3333333333333333,2025-26,2025-26-East Carolina
Portland,WCC,Mid-Major,45.5118121,-122.686121,1825,,137.4,0.25,9,0.24100000000000002,60.74,222,222,0.40625,2025-26,2025-26-Portland
East Texas A&M,Southland,Low-Major,33.2399911,-95.9182528,2200,,221.2,0.083,3,0.08020000000000001,36.8,304,304,0.3,2025-26,2025-26-East Texas A&M
South Dakota,Summit League,Low-Major,42.7913704,-96.9254235,414,,238.9,0.111,3,0.0786,31.74,284,284,0.4482758620689655,2025-26,2025-26-South Dakota
Presbyterian,Big South,Low-Major,34.4627505,-81.8671771,Liberty Street,,236.7,0.111,3,0.085,32.37,260,260,0.4,2025-26,2025-26-Presbyterian
Loyola Maryland,Patriot,Low-Major,39.3483538,-76.6159318,4501,,280.7,0.1,5,0.1538,19.8,328,328,0.3333333333333333,2025-26,2025-26-Loyola Maryland
Massachusetts,MAC,Low-Major,42.3582529,-71.0966272,Dr. Paul Dudley White Path,,200.5,0.154,3,0.05700000000000001,42.71,201,201,0.5,2025-26,2025-26-Massachusetts
Utah St.,Mountain West,Mid-Major,41.7526959,-111.808733,2000 North,,113.7,0.083,17,0.3812,67.51,26,26,0.8181818181818182,2025-26,2025-26-Utah St.
Stonehill,NEC,Low-Major,42.0599777,-71.0793257,320,,304.0,0.1,4,0.13540000000000002,13.14,332,332,0.3225806451612903,2025-26,2025-26-Stonehill
Kent St.,MAC,Low-Major,41.1441814,-81.3398329,Haymaker Parkway,,200.5,0.154,3,0.05700000000000001,42.71,140,140,0.7096774193548387,2025-26,2025-26-Kent St.
Clemson,ACC,Power,34.6686916,-82.8374348,West Queen Street,,62.0,0.444,19,0.3154,82.29,34,34,0.7058823529411765,2025-26,2025-26-Clemson
Alabama St.,SWAC,Low-Major,32.751254,-117.1425131,Egyptian Quarter,,315.8,0.083,3,0.0908,9.77,324,324,0.2903225806451613,2025-26,2025-26-Alabama St.
Northern Colo.,Big Sky,Low-Major,40.4028503,-104.7017242,501,,198.8,0.1,3,0.0708,43.2,150,150,0.5862068965517241,2025-26,2025-26-Northern Colo.
William & Mary,CAA,Low-Major,37.2690934,-76.7220509,Tennis Court,,192.4,0.077,3,0.0756,45.03,129,129,0.6,2025-26,2025-26-William & Mary
UIC,MVC,Mid-Major,41.8748613,-87.6519866,1200,,141.1,0.091,5,0.1096,59.69,110,110,0.53125,2025-26,2025-26-UIC
Abilene Christian,WAC,Low-Major,32.4699728,-99.7073595,1600,,181.4,0.143,2,0.045,48.17,248,248,0.36666666666666664,2025-26,2025-26-Abilene Christian
St. John's (NY),Big East,Power,40.7255421,-73.7919066,Union Turnpike,,67.5,0.273,19,0.487,80.71,15,15,0.8235294117647058,2025-26,2025-26-St. John's (NY)
Western Ky.,CUSA,Low-Major,36.984529,-86.457647,1906,,188.7,0.083,4,0.0954,46.09,160,160,0.5333333333333333,2025-26,2025-26-Western Ky.
Kennesaw St.,CUSA,Low-Major,28.5899425,-81.1743505,College Heights,,188.7,0.083,4,0.0954,46.09,155,155,0.5806451612903226,2025-26,2025-26-Kennesaw St.
Delaware St.,MEAC,Low-Major,32.7609057,-117.1524807,University Heights,,330.9,0.125,5,0.1414,5.46,362,362,0.18518518518518517,2025-26,2025-26-Delaware St.
Niagara,MAAC,Low-Major,43.1366031,-79.0348892,Monteagle Trail,,262.2,0.077,3,0.075,25.09,341,341,0.2413793103448276,2025-26,2025-26-Niagara
Hofstra,CAA,Low-Major,40.7169083,-73.6000225,Belmont Place,,192.4,0.077,3,0.0756,45.03,88,88,0.6875,2025-26,2025-26-Hofstra
Florida A&M,SWAC,Low-Major,30.4227425,-84.2875987,1601,,315.8,0.083,3,0.0908,9.77,312,312,0.4482758620689655,2025-26,2025-26-Florida A&M
Montana St.,Big Sky,Low-Major,43.0348354,-76.1137823,University Neighborhood,,198.8,0.1,3,0.0708,43.2,128,128,0.5172413793103449,2025-26,2025-26-Montana St.
Arkansas St.,Sun Belt,Low-Major,35.8441163,-90.6726325,2105,,226.1,0.071,4,0.0804,35.4,154,154,0.6,2025-26,2025-26-Arkansas St.
Stony Brook,CAA,Low-Major,40.9090809,-73.1205518,100,,192.4,0.077,3,0.0756,45.03,232,232,0.5,2025-26,2025-26-Stony Brook
LIU,NEC,Low-Major,40.6911022,-73.9803965,1,,304.0,0.1,4,0.13540000000000002,13.14,198,198,0.7058823529411765,2025-26,2025-26-LIU
Arizona St.,Big 12,Power,32.7637331,-117.1370956,University Heights,,48.9,0.5,25,0.557,86.03,73,73,0.5151515151515151,2025-26,2025-26-Arizona St.
Idaho St.,Big Sky,Low-Major,46.7278986,-117.1670076,Washington State University,,198.8,0.1,3,0.0708,43.2,236,236,0.3333333333333333,2025-26,2025-26-Idaho St.
UNC Greensboro,SoCon,Low-Major,36.0683549,-79.8105812,1400,,248.3,0.1,1,0.0222,29.06,292,292,0.40625,2025-26,2025-26-UNC Greensboro
Utah,Big 12,Power,40.7628137,-111.8368719,201,,48.9,0.5,25,0.557,86.03,132,132,0.3125,2025-26,2025-26-Utah
Lafayette,Patriot,Low-Major,40.6986698,-75.209255,730,,280.7,0.1,5,0.1538,19.8,323,323,0.3225806451612903,2025-26,2025-26-Lafayette
Drexel,CAA,Low-Major,39.9569305,-75.1899265,3141,,192.4,0.077,3,0.0756,45.03,212,212,0.5,2025-26,2025-26-Drexel
George Washington,Atlantic 10,Mid-Major,38.899865,-77.0474485,Ward 2,,132.2,0.143,5,0.0838,62.23,91,91,0.53125,2025-26,2025-26-George Washington
UTSA,American,Low-Major,29.583,-98.6197,San Antonio,TX,160.3,0.077,8,0.1528,54.2,344,344,0.10714285714285714,2025-26,2025-26-UTSA
North Ala.,ASUN,Low-Major,34.8075226,-87.6816129,1,,259.9,0.083,4,0.0816,25.74,338,338,0.25,2025-26,2025-26-North Ala.
South Fla.,American,Low-Major,28.0599999,-82.4138362,4202,,160.3,0.077,8,0.1528,54.2,45,45,0.7419354838709677,2025-26,2025-26-South Fla.
Brown,Ivy League,Low-Major,41.8186395,-71.4088009,Camp Street,,188.6,0.125,3,0.0822,46.11,296,296,0.28,2025-26,2025-26-Brown
Idaho,Big Sky,Low-Major,46.7237978,-117.0206648,875,,198.8,0.1,3,0.0708,43.2,144,144,0.5625,2025-26,2025-26-Idaho
Ohio St.,Big Ten,Power,40.0056982,-83.0286573,281,,55.7,0.5,32,0.5892,84.09,29,29,0.6363636363636364,2025-26,2025-26-Ohio St.
Ga. Southern,Sun Belt,Low-Major,32.4279,-81.7842,Statesboro,GA,226.1,0.071,4,0.0804,35.4,220,220,0.5428571428571428,2025-26,2025-26-Ga. Southern
Indiana,Big Ten,Power,39.1802358,-86.5093526,Meadowood Connectors,,55.7,0.5,32,0.5892,84.09,41,41,0.5625,2025-26,2025-26-Indiana
Saint Joseph's,Atlantic 10,Mid-Major,39.9965297,-75.2415117,North 54th Street,,132.2,0.143,5,0.0838,62.23,121,121,0.6451612903225806,2025-26,2025-26-Saint Joseph's
Monmouth,CAA,Low-Major,40.2794106,-74.0068022,400,,192.4,0.077,3,0.0756,45.03,168,168,0.5454545454545454,2025-26,2025-26-Monmouth
Southern U.,SWAC,Low-Major,30.5258157,-91.194946,E Street,,315.8,0.083,3,0.0908,9.77,279,279,0.45161290322580644,2025-26,2025-26-Southern U.
Louisiana Tech,CUSA,Low-Major,32.5261061,-92.6481217,305,,188.7,0.083,4,0.0954,46.09,209,209,0.5483870967741935,2025-26,2025-26-Louisiana Tech
Oklahoma St.,Big 12,Power,36.1748847,-95.9912576,University Park,,48.9,0.5,25,0.557,86.03,75,75,0.5757575757575758,2025-26,2025-26-Oklahoma St.
Portland St.,Big Sky,Low-Major,45.5161924,-122.6807637,620,,198.8,0.1,3,0.0708,43.2,146,146,0.6071428571428571,2025-26,2025-26-Portland St.
Seattle U,WCC,Mid-Major,47.6095043,-122.3187983,East Seneca Street,,137.4,0.25,9,0.24100000000000002,60.74,122,122,0.5806451612903226,2025-26,2025-26-Seattle U
Butler,Big East,Power,39.8393056,-86.1703166,West 46th Street,,67.5,0.273,19,0.487,80.71,84,84,0.5,2025-26,2025-26-Butler
Lamar University,Southland,Low-Major,30.0388947,-94.0758929,4400,,221.2,0.083,3,0.08020000000000001,36.8,251,251,0.3448275862068966,2025-26,2025-26-Lamar University
Michigan St.,Big Ten,Power,42.7023794,-84.4803869,426,,55.7,0.5,32,0.5892,84.09,11,11,0.78125,2025-26,2025-26-Michigan St.
Longwood,Big South,Low-Major,37.3090314,-78.4016795,Georgia Street,,236.7,0.111,3,0.085,32.37,266,266,0.4482758620689655,2025-26,2025-26-Longwood
Mercer,SoCon,Low-Major,32.8289341,-83.6506702,Fall Line Freeway,,248.3,0.1,1,0.0222,29.06,182,182,0.5517241379310345,2025-26,2025-26-Mercer
Rhode Island,Atlantic 10,Mid-Major,41.8271038,-71.4063901,Providence County,,132.2,0.143,5,0.0838,62.23,151,151,0.5,2025-26,2025-26-Rhode Island
TCU,Big 12,Power,32.7080148,-97.3611939,West Berry Street,,48.9,0.5,25,0.557,86.03,39,39,0.6666666666666666,2025-26,2025-26-TCU
Denver,Summit League,Low-Major,39.6766157,-104.9623745,2199,,238.9,0.111,3,0.0786,31.74,241,241,0.41379310344827586,2025-26,2025-26-Denver
Eastern Ky.,ASUN,Low-Major,37.7341619,-84.3011984,Roy and Sue Kidd Drive,,259.9,0.083,4,0.0816,25.74,291,291,0.3,2025-26,2025-26-Eastern Ky.
McNeese,Southland,Low-Major,30.1751363,-93.2112786,Jefferson Drive,,221.2,0.083,3,0.08020000000000001,36.8,56,56,0.8387096774193549,2025-26,2025-26-McNeese
Cal Poly,Big West,Low-Major,34.0556686,-117.8239282,Pomona,,192.0,0.091,1,0.025,45.14,225,225,0.3870967741935484,2025-26,2025-26-Cal Poly
Charlotte,American,Low-Major,35.3064945,-80.7349705,9201,,160.3,0.077,8,0.1528,54.2,173,173,0.48484848484848486,2025-26,2025-26-Charlotte
Fresno St.,Mountain West,Mid-Major,36.8209963,-119.7372976,Fresno,,113.7,0.083,17,0.3812,67.51,153,153,0.3870967741935484,2025-26,2025-26-Fresno St.
St. Bonaventure,Atlantic 10,Mid-Major,42.0767249,-78.4816526,Bonaventure Road,,132.2,0.143,5,0.0838,62.23,143,143,0.48484848484848486,2025-26,2025-26-St. Bonaventure
Western Mich.,MAC,Low-Major,42.2832928,-85.6102812,1903,,200.5,0.154,3,0.05700000000000001,42.71,283,283,0.3103448275862069,2025-26,2025-26-Western Mich.
South Carolina St.,MEAC,Low-Major,33.9928841,-81.0268676,Huger Street,,330.9,0.125,5,0.1414,5.46,356,356,0.26666666666666666,2025-26,2025-26-South Carolina St.
Southern Miss.,Sun Belt,Low-Major,31.3286452,-89.3367312,118,,226.1,0.071,4,0.0804,35.4,214,214,0.5151515151515151,2025-26,2025-26-Southern Miss.
Louisiana,Sun Belt,Low-Major,30.4062005,-91.1854129,Iris Street,,226.1,0.071,4,0.0804,35.4,313,313,0.3333333333333333,2025-26,2025-26-Louisiana
Utah Valley,WAC,Low-Major,40.2794106,-111.7178868,800,,181.4,0.143,2,0.045,48.17,85,85,0.7333333333333333,2025-26,2025-26-Utah Valley
Creighton,Big East,Power,41.2658566,-95.9450555,North 17th Street,,67.5,0.273,19,0.487,80.71,83,83,0.46875,2025-26,2025-26-Creighton
Tennessee Tech,OVC,Low-Major,36.1748736,-85.5089051,1,,275.6,0.091,2,0.0422,21.26,308,308,0.35714285714285715,2025-26,2025-26-Tennessee Tech
Wichita St.,American,Low-Major,29.7132371,-95.3507871,Oak Manor,,160.3,0.077,8,0.1528,54.2,74,74,0.6774193548387096,2025-26,2025-26-Wichita St.
Illinois,Big Ten,Power,40.0761545,-88.2233134,Champaign County,,55.7,0.5,32,0.5892,84.09,8,8,0.75,2025-26,2025-26-Illinois
Georgia St.,Sun Belt,Low-Major,32.7484304,-117.144992,Egyptian Quarter,,226.1,0.071,4,0.0804,35.4,307,307,0.26666666666666666,2025-26,2025-26-Georgia St.
Evansville,MVC,Mid-Major,37.9735131,-87.5322977,East Walnut Street,,141.1,0.091,5,0.1096,59.69,306,306,0.16666666666666666,2025-26,2025-26-Evansville
Notre Dame,ACC,Power,41.7045678,-86.2382203,West Pokagon Street,,62.0,0.444,19,0.3154,82.29,94,94,0.41935483870967744,2025-26,2025-26-Notre Dame
Morehead St.,OVC,Low-Major,38.1867483,-83.4332396,Gevedon Place,,275.6,0.091,2,0.0422,21.26,264,264,0.5666666666666667,2025-26,2025-26-Morehead St.
Pittsburgh,ACC,Power,40.444153,-79.962461,4200,,62.0,0.444,19,0.3154,82.29,104,104,0.3939393939393939,2025-26,2025-26-Pittsburgh
Robert Morris,Horizon,Low-Major,40.5215586,-80.2115783,6001,,221.2,0.091,3,0.089,36.8,147,147,0.6451612903225806,2025-26,2025-26-Robert Morris
Belmont,MVC,Mid-Major,36.1327716,-86.7925822,Acklen Avenue,,141.1,0.091,5,0.1096,59.69,63,63,0.8064516129032258,2025-26,2025-26-Belmont
UCLA,Big Ten,Power,34.0708777,-118.4468503,Los Angeles,,55.7,0.5,32,0.5892,84.09,31,31,0.6764705882352942,2025-26,2025-26-UCLA
Canisius,MAAC,Low-Major,42.9274386,-78.853529,Meech Street,,262.2,0.077,3,0.075,25.09,343,343,0.3,2025-26,2025-26-Canisius
Columbia,Ivy League,Low-Major,40.8077508,-73.9624901,Reunion Plaza,,188.6,0.125,3,0.0822,46.11,185,185,0.5384615384615384,2025-26,2025-26-Columbia
Dayton,Atlantic 10,Mid-Major,39.7383807,-84.1791678,Rubicon Street,,132.2,0.143,5,0.0838,62.23,69,69,0.696969696969697,2025-26,2025-26-Dayton
Virginia Tech,ACC,Power,37.2219268,-80.4272818,800,,62.0,0.444,19,0.3154,82.29,55,55,0.59375,2025-26,2025-26-Virginia Tech
James Madison,Sun Belt,Low-Major,38.4364404,-78.8689648,800,,226.1,0.071,4,0.0804,35.4,208,208,0.53125,2025-26,2025-26-James Madison
Kansas,Big 12,Power,38.9535052,-95.263093,1450,,48.9,0.5,25,0.557,86.03,21,21,0.696969696969697,2025-26,2025-26-Kansas
Missouri,SEC,Power,38.9364147,-92.329703,Columbia,,46.4,0.625,34,0.5916,86.74,58,58,0.625,2025-26,2025-26-Missouri
Princeton,Ivy League,Low-Major,40.3386752,-74.6583655,Canal Pointe Boulevard,,188.6,0.125,3,0.0822,46.11,249,249,0.2857142857142857,2025-26,2025-26-Princeton
SIUE,OVC,Low-Major,38.7941616,-90.0002789,1,,275.6,0.091,2,0.0422,21.26,259,259,0.5517241379310345,2025-26,2025-26-SIUE
Western Ill.,OVC,Low-Major,41.5139196,-90.492917,University Drive,,275.6,0.091,2,0.0422,21.26,364,364,0.07142857142857142,2025-26,2025-26-Western Ill.
Milwaukee,Horizon,Low-Major,43.077639,-87.8819425,2200,,221.2,0.091,3,0.089,36.8,253,253,0.3548387096774194,2025-26,2025-26-Milwaukee
Southern Ind.,OVC,Low-Major,37.9584686,-87.6742032,8600,,275.6,0.091,2,0.0422,21.26,345,345,0.17857142857142858,2025-26,2025-26-Southern Ind.
Pepperdine,WCC,Mid-Major,34.1388191,-118.707359,26750,,137.4,0.25,9,0.24100000000000002,60.74,274,274,0.23333333333333334,2025-26,2025-26-Pepperdine
San Diego St.,Mountain West,Mid-Major,32.7761529,-117.0733037,1,,113.7,0.083,17,0.3812,67.51,47,47,0.65625,2025-26,2025-26-San Diego St.
St. Thomas (MN),Summit League,Low-Major,44.9421059,-93.1894522,Summit Avenue,,238.9,0.111,3,0.0786,31.74,103,103,0.7,2025-26,2025-26-St. Thomas (MN)
Texas,SEC,Power,30.6108618,-96.3520606,400,,46.4,0.625,34,0.5916,86.74,42,42,0.5483870967741935,2025-26,2025-26-Texas
Jacksonville St.,CUSA,Low-Major,33.8154301,-85.7652896,115,,188.7,0.083,4,0.0954,46.09,216,216,0.41379310344827586,2025-26,2025-26-Jacksonville St.
Radford,Big South,Low-Major,37.1370242,-80.5499612,801,,236.7,0.111,3,0.085,32.37,252,252,0.4482758620689655,2025-26,2025-26-Radford
Boston College,ACC,Power,42.3354481,-71.1682665,Glen Avenue Branch,,62.0,0.444,19,0.3154,82.29,158,158,0.3548387096774194,2025-26,2025-26-Boston College
Nebraska,Big Ten,Power,40.8205941,-96.7026058,North 10th Street,,55.7,0.5,32,0.5892,84.09,14,14,0.8125,2025-26,2025-26-Nebraska
Penn,Ivy League,Low-Major,39.9531483,-75.1845715,Chestnut Street,,188.6,0.125,3,0.0822,46.11,148,148,0.5925925925925926,2025-26,2025-26-Penn
Middle Tenn.,CUSA,Low-Major,35.8486009,-86.3609036,1301,,188.7,0.083,4,0.0954,46.09,163,163,0.4827586206896552,2025-26,2025-26-Middle Tenn.
Mississippi St.,SEC,Power,33.4827921,-88.7364691,14279,,46.4,0.625,34,0.5916,86.74,112,112,0.40625,2025-26,2025-26-Mississippi St.
Valparaiso,MVC,Mid-Major,41.4629628,-87.044689,Silhavy Road,,141.1,0.091,5,0.1096,59.69,156,156,0.53125,2025-26,2025-26-Valparaiso
Marist,MAAC,Low-Major,41.722007,-73.9343836,3399,,262.2,0.077,3,0.075,25.09,181,181,0.6,2025-26,2025-26-Marist
New Haven,NEC,Low-Major,41.2909115,-72.9626379,Boston Post Road,,304.0,0.1,4,0.13540000000000002,13.14,325,325,0.39285714285714285,2025-26,2025-26-New Haven
Gonzaga,WCC,Mid-Major,47.6671026,-117.4030546,502,,137.4,0.25,9,0.24100000000000002,60.74,6,6,0.9090909090909091,2025-26,2025-26-Gonzaga
Arkansas,SEC,Power,36.0970389,-94.1703322,West Dinwiddlie Street,,46.4,0.625,34,0.5916,86.74,17,17,0.7575757575757576,2025-26,2025-26-Arkansas
Oklahoma,SEC,Power,35.1959878,-97.4457083,660,,46.4,0.625,34,0.5916,86.74,48,48,0.5588235294117647,2025-26,2025-26-Oklahoma
Iona,MAAC,Low-Major,40.9272305,-73.7856909,715;45,,262.2,0.077,3,0.075,25.09,237,237,0.5625,2025-26,2025-26-Iona
Alcorn,SWAC,Low-Major,31.8747584,-91.1386681,Willow Oak Lane,,315.8,0.083,3,0.0908,9.77,349,349,0.28125,2025-26,2025-26-Alcorn
FDU,NEC,Low-Major,40.8939339,-74.031982,Lone Pine Drive,,304.0,0.1,4,0.13540000000000002,13.14,334,334,0.27586206896551724,2025-26,2025-26-FDU
Grambling,SWAC,Low-Major,32.5195028,-92.7211638,403,,315.8,0.083,3,0.0908,9.77,305,305,0.3870967741935484,2025-26,2025-26-Grambling
Loyola Chicago,Atlantic 10,Mid-Major,41.9991492,-87.6573094,1032,,132.2,0.143,5,0.0838,62.23,278,278,0.2727272727272727,2025-26,2025-26-Loyola Chicago
The Citadel,SoCon,Low-Major,32.7963982,-79.9611833,171,,248.3,0.1,1,0.0222,29.06,346,346,0.26666666666666666,2025-26,2025-26-The Citadel
SFA,Southland,Low-Major,31.628015,-94.6522154,2724,,221.2,0.083,3,0.08020000000000001,36.8,89,89,0.8387096774193549,2025-26,2025-26-SFA
Sacramento St.,Big Sky,Low-Major,37.8703678,-122.2813466,University Avenue,,198.8,0.1,3,0.0708,43.2,269,269,0.25,2025-26,2025-26-Sacramento St.
Towson,CAA,Low-Major,39.3869768,-76.6185804,8000,,192.4,0.077,3,0.0756,45.03,159,159,0.53125,2025-26,2025-26-Towson
Saint Peter's,MAAC,Low-Major,40.7276245,-74.0721679,Montgomery Street,,262.2,0.077,3,0.075,25.09,233,233,0.5714285714285714,2025-26,2025-26-Saint Peter's
Ole Miss,SEC,Power,34.3646125,-89.5396349,Hickory Lane,,46.4,0.625,34,0.5916,86.74,82,82,0.42857142857142855,2025-26,2025-26-Ole Miss
Utah Tech,WAC,Low-Major,37.1030099,-113.5653354,225,,181.4,0.143,2,0.045,48.17,176,176,0.5161290322580645,2025-26,2025-26-Utah Tech
Yale,Ivy League,Low-Major,41.2571306,-72.9896696,West Haven,,188.6,0.125,3,0.0822,46.11,65,65,0.8148148148148148,2025-26,2025-26-Yale
Ark.-Pine Bluff,SWAC,Low-Major,34.2510901,-92.0289102,John Kennedy Drive,,315.8,0.083,3,0.0908,9.77,316,316,0.36666666666666664,2025-26,2025-26-Ark.-Pine Bluff
UMBC,America East,Low-Major,39.252377,-76.7089181,1000,,310.9,0.111,5,0.13140000000000002,11.17,196,196,0.7333333333333333,2025-26,2025-26-UMBC
FIU,CUSA,Low-Major,25.7553898,-80.3762833,11200,,188.7,0.083,4,0.0954,46.09,197,197,0.41379310344827586,2025-26,2025-26-FIU
Georgetown,Big East,Power,38.9089393,-77.0745796,3700,,67.5,0.273,19,0.487,80.71,90,90,0.47058823529411764,2025-26,2025-26-Georgetown
Stanford,ACC,Power,37.4313138,-122.1693654,450,,62.0,0.444,19,0.3154,82.29,61,61,0.625,2025-26,2025-26-Stanford
Toledo,MAC,Low-Major,41.6582432,-83.6147873,2801,,200.5,0.154,3,0.05700000000000001,42.71,130,130,0.53125,2025-26,2025-26-Toledo
Ball St.,MAC,Low-Major,40.2097296,-85.4112151,North Mann Avenue,,200.5,0.154,3,0.05700000000000001,42.71,299,299,0.3448275862068966,2025-26,2025-26-Ball St.
Chicago St.,NEC,Low-Major,28.05541,-82.4273086,2770,,304.0,0.1,4,0.13540000000000002,13.14,340,340,0.1935483870967742,2025-26,2025-26-Chicago St.
UNCW,CAA,Low-Major,34.2249827,-77.8690774,601,,192.4,0.077,3,0.0756,45.03,96,96,0.8,2025-26,2025-26-UNCW
Wright St.,Horizon,Low-Major,39.7842039,-84.0567799,3640,,221.2,0.091,3,0.089,36.8,127,127,0.65625,2025-26,2025-26-Wright St.
Troy,Sun Belt,Low-Major,31.8022234,-85.9556867,University Avenue,,226.1,0.071,4,0.0804,35.4,125,125,0.6451612903225806,2025-26,2025-26-Troy
NJIT,America East,Low-Major,40.7421254,-74.1790316,Sussex Avenue,,310.9,0.111,5,0.13140000000000002,11.17,327,327,0.46875,2025-26,2025-26-NJIT
VMI,SoCon,Low-Major,37.7913339,-79.4355152,319,,248.3,0.1,1,0.0222,29.06,359,359,0.10344827586206896,2025-26,2025-26-VMI
Binghamton,America East,Low-Major,42.0877998,-75.9706607,4400,,310.9,0.111,5,0.13140000000000002,11.17,360,360,0.17857142857142858,2025-26,2025-26-Binghamton
South Dakota St.,Summit League,Low-Major,44.344449,-96.7982371,Sunnyview Drive,,238.9,0.111,3,0.0786,31.74,210,210,0.3793103448275862,2025-26,2025-26-South Dakota St.
Harvard,Ivy League,Low-Major,42.3657432,-71.1222139,Channing Place,,188.6,0.125,3,0.0822,46.11,152,152,0.5714285714285714,2025-26,2025-26-Harvard
UC Santa Barbara,Big West,Low-Major,34.4146025,-119.84581,Santa Barbara,,192.0,0.091,1,0.025,45.14,142,142,0.5333333333333333,2025-26,2025-26-UC Santa Barbara
Fla. Atlantic,American,Low-Major,26.3743445,-80.1027236,777,,160.3,0.077,8,0.1528,54.2,123,123,0.5161290322580645,2025-26,2025-26-Fla. Atlantic
Weber St.,Big Sky,Low-Major,41.1920906,-111.9391269,3848,,198.8,0.1,3,0.0708,43.2,202,202,0.4666666666666667,2025-26,2025-26-Weber St.
Boston U.,Patriot,Low-Major,42.3504215,-71.1032247,Short Street,,280.7,0.1,5,0.1538,19.8,263,263,0.48484848484848486,2025-26,2025-26-Boston U.
Wake Forest,ACC,Power,36.133893,-80.2755578,1834,,62.0,0.444,19,0.3154,82.29,67,67,0.5151515151515151,2025-26,2025-26-Wake Forest
West Virginia,Big 12,Power,39.6348398,-79.9542095,Cherry Lane,,48.9,0.5,25,0.557,86.03,59,59,0.5625,2025-26,2025-26-West Virginia
Central Ark.,ASUN,Low-Major,35.0776411,-92.4579926,201,,259.9,0.083,4,0.0816,25.74,166,166,0.625,2025-26,2025-26-Central Ark.
Jackson St.,SWAC,Low-Major,41.5531468,-87.3438448,University Park,,315.8,0.083,3,0.0908,9.77,347,347,0.36363636363636365,2025-26,2025-26-Jackson St.
Lehigh,Patriot,Low-Major,40.6068028,-75.3782488,Library Drive,,280.7,0.1,5,0.1538,19.8,275,275,0.5,2025-26,2025-26-Lehigh
USC Upstate,Big South,Low-Major,34.9525837,-81.9307048,160,,236.7,0.111,3,0.085,32.37,303,303,0.3448275862068966,2025-26,2025-26-USC Upstate
Cleveland St.,Horizon,Low-Major,34.7423781,-92.3448057,University Park,,221.2,0.091,3,0.089,36.8,317,317,0.26666666666666666,2025-26,2025-26-Cleveland St.
North Florida,ASUN,Low-Major,30.2689865,-81.5096561,1,,259.9,0.083,4,0.0816,25.74,337,337,0.16666666666666666,2025-26,2025-26-North Florida
Bowling Green,MAC,Low-Major,41.3795005,-83.629789,1001,,200.5,0.154,3,0.05700000000000001,42.71,157,157,0.5172413793103449,2025-26,2025-26-Bowling Green
Bryant,America East,Low-Major,41.9220915,-71.5371517,1150,,310.9,0.111,5,0.13140000000000002,11.17,354,354,0.2413793103448276,2025-26,2025-26-Bryant
Georgia,SEC,Power,33.9404278,-83.373049,South Milledge Drive,,46.4,0.625,34,0.5916,86.74,33,33,0.6875,2025-26,2025-26-Georgia
Villanova,Big East,Power,40.0367835,-75.3420185,East County Line Road,,67.5,0.273,19,0.487,80.71,35,35,0.75,2025-26,2025-26-Villanova
San Francisco,WCC,Mid-Major,37.7793627,-122.4514473,2130,,137.4,0.25,9,0.24100000000000002,60.74,119,119,0.5,2025-26,2025-26-San Francisco
Nevada,Mountain West,Mid-Major,36.1079411,-115.1439051,Las Vegas,,113.7,0.083,17,0.3812,67.51,70,70,0.6470588235294118,2025-26,2025-26-Nevada
American,Patriot,Low-Major,38.9377511,-77.0894676,4400,,280.7,0.1,5,0.1538,19.8,256,256,0.4666666666666667,2025-26,2025-26-American
Tarleton St.,WAC,Low-Major,32.214673,-98.2196882,1333,,181.4,0.143,2,0.045,48.17,230,230,0.35714285714285715,2025-26,2025-26-Tarleton St.
Miami (FL),ACC,Power,25.7172725,-80.2787069,Miller Road,,62.0,0.444,19,0.3154,82.29,32,32,0.7575757575757576,2025-26,2025-26-Miami (FL)
Northern Ky.,Horizon,Low-Major,39.0346853,-84.4659598,Grant Drive,,221.2,0.091,3,0.089,36.8,184,184,0.5483870967741935,2025-26,2025-26-Northern Ky.
Auburn,SEC,Power,32.5919529,-85.4959775,Auburn,,46.4,0.625,34,0.5916,86.74,38,38,0.5151515151515151,2025-26,2025-26-Auburn
Alabama A&M,SWAC,Low-Major,34.7842987,-86.5701304,4900,,315.8,0.083,3,0.0908,9.77,310,310,0.5,2025-26,2025-26-Alabama A&M
Campbell,CAA,Low-Major,35.408071,-78.7392468,143,,192.4,0.077,3,0.0756,45.03,200,200,0.4375,2025-26,2025-26-Campbell
Dartmouth,Ivy League,Low-Major,43.7046757,-72.2942089,I 91,,188.6,0.125,3,0.0822,46.11,265,265,0.36,2025-26,2025-26-Dartmouth
Gardner-Webb,Big South,Low-Major,35.2478295,-81.670238,110,,236.7,0.111,3,0.085,32.37,361,361,0.06666666666666667,2025-26,2025-26-Gardner-Webb
DePaul,Big East,Power,41.9245803,-87.6507223,2400,,67.5,0.273,19,0.487,80.71,102,102,0.5,2025-26,2025-26-DePaul
Jacksonville,ASUN,Low-Major,30.3537227,-81.6073061,Dolphin Drive,,259.9,0.083,4,0.0816,25.74,297,297,0.3333333333333333,2025-26,2025-26-Jacksonville
Northern Ariz.,Big Sky,Low-Major,35.1830867,-111.654961,West University Drive,,198.8,0.1,3,0.0708,43.2,315,315,0.2413793103448276,2025-26,2025-26-Northern Ariz.
Southern Utah,WAC,Low-Major,37.6748541,-113.0731048,351,,181.4,0.143,2,0.045,48.17,272,272,0.2413793103448276,2025-26,2025-26-Southern Utah
Navy,Patriot,Low-Major,38.9819343,-76.4821709,121,,280.7,0.1,5,0.1538,19.8,136,136,0.7741935483870968,2025-26,2025-26-Navy
Kansas City,Summit League,Low-Major,39.1068471,-94.561009,1750,,238.9,0.111,3,0.0786,31.74,358,358,0.03571428571428571,2025-26,2025-26-Kansas City
Boise St.,Mountain West,Mid-Major,43.6032821,-116.19941,West Rockney Street,,113.7,0.083,17,0.3812,67.51,60,60,0.6333333333333333,2025-26,2025-26-Boise St.
Maine,America East,Low-Major,44.9015188,-68.6617222,168,,310.9,0.111,5,0.13140000000000002,11.17,339,339,0.22580645161290322,2025-26,2025-26-Maine
Kansas St.,Big 12,Power,32.0033129,-102.0884082,Grafaland,,48.9,0.5,25,0.557,86.03,100,100,0.375,2025-26,2025-26-Kansas St.
Wofford,SoCon,Low-Major,34.9587,-81.9348,Spartanburg,SC,248.3,0.1,1,0.0222,29.06,245,245,0.5666666666666667,2025-26,2025-26-Wofford
Army West Point,Patriot,Low-Major,41.3926455,-73.9599242,845,,280.7,0.1,5,0.1538,19.8,336,336,0.3,2025-26,2025-26-Army West Point
South Carolina,SEC,Power,33.9928841,-81.0268676,Assembly Street,,46.4,0.625,34,0.5916,86.74,108,108,0.40625,2025-26,2025-26-South Carolina
SMU,ACC,Power,32.8418011,-96.7815281,6425,,62.0,0.444,19,0.3154,82.29,37,37,0.6060606060606061,2025-26,2025-26-SMU
Austin Peay,ASUN,Low-Major,36.5342965,-87.3543085,601,,259.9,0.083,4,0.0816,25.74,164,164,0.6896551724137931,2025-26,2025-26-Austin Peay
Marquette,Big East,Power,43.0374344,-87.9294774,1250,,67.5,0.273,19,0.487,80.71,93,93,0.375,2025-26,2025-26-Marquette
Mount St. Mary's,MAAC,Low-Major,39.6805605,-77.3465509,16300,,262.2,0.077,3,0.075,25.09,281,281,0.45161290322580644,2025-26,2025-26-Mount St. Mary's
